$GPRMC,152401.341,V,4054.931,N,07902.497,W,60.4,0.05,041017,,E*4A
$GPGGA,152402.341,4054.931,N,07902.497,W,0,00,,,M,,M,,*5F
$GPGLL,4054.931,N,07902.497,W,152403.341,V*3E
$GPRMC,152404.341,V,4054.933,N,07902.497,W,12.9,-0.02,041017,,E*6F
$GPGGA,152405.341,4054.933,N,07902.497,W,0,00,,,M,,M,,*5A
$GPGLL,4054.933,N,07902.497,W,152406.341,V*39
$GPRMC,152407.341,V,4054.935,N,07902.497,W,73.7,0.08,041017,,E*44
$GPGGA,152408.341,4054.935,N,07902.497,W,0,00,,,M,,M,,*51
$GPGLL,4054.935,N,07902.497,W,152409.341,V*30
$GPRMC,152410.341,V,4054.937,N,07902.497,W,18.2,0.08,041017,,E*48
$GPGGA,152411.341,4054.937,N,07902.497,W,0,00,,,M,,M,,*5B
$GPGLL,4054.937,N,07902.497,W,152412.341,V*38
$GPRMC,152413.341,V,4054.939,N,07902.497,W,78.2,0.01,041017,,E*4A
$GPGGA,152414.341,4054.939,N,07902.497,W,0,00,,,M,,M,,*50
$GPGLL,4054.939,N,07902.497,W,152415.341,V*31
$GPRMC,152416.341,V,4054.940,N,07902.496,W,72.2,0.11,041017,,E*4B
$GPGGA,152417.341,4054.940,N,07902.496,W,0,00,,,M,,M,,*5C
$GPGLL,4054.940,N,07902.496,W,152418.341,V*33
$GPRMC,152419.341,V,4054.942,N,07902.496,W,10.0,0.03,041017,,E*43
$GPGGA,152420.341,4054.942,N,07902.496,W,0,00,,,M,,M,,*5A
$GPGLL,4054.942,N,07902.496,W,152421.341,V*3B
$GPRMC,152422.341,V,4054.944,N,07902.496,W,16.5,0.12,041017,,E*4E
$GPGGA,152423.341,4054.944,N,07902.496,W,0,00,,,M,,M,,*5F
$GPGLL,4054.944,N,07902.496,W,152424.341,V*38
$GPRMC,152425.341,V,4054.946,N,07902.496,W,65.3,0.07,041017,,E*4D
$GPGGA,152426.341,4054.946,N,07902.496,W,0,00,,,M,,M,,*58
$GPGLL,4054.946,N,07902.496,W,152427.341,V*39
$GPRMC,152428.341,V,4054.948,N,07902.496,W,84.9,0.02,041017,,E*4E
$GPGGA,152429.341,4054.948,N,07902.496,W,0,00,,,M,,M,,*59
$GPGLL,4054.948,N,07902.496,W,152430.341,V*31
$GPRMC,152431.341,V,4054.949,N,07902.495,W,80.2,0.12,041017,,E*4A
$GPGGA,152432.341,4054.949,N,07902.495,W,0,00,,,M,,M,,*51
$GPGLL,4054.949,N,07902.495,W,152433.341,V*30
$GPRMC,152434.341,V,4054.951,N,07902.495,W,27.7,0.20,041017,,E*4F
$GPGGA,152435.341,4054.951,N,07902.495,W,0,00,,,M,,M,,*5F
$GPGLL,4054.951,N,07902.495,W,152436.341,V*3C
$GPRMC,152437.341,V,4054.953,N,07902.494,W,79.7,0.26,041017,,E*42
$GPGGA,152438.341,4054.953,N,07902.494,W,0,00,,,M,,M,,*51
$GPGLL,4054.953,N,07902.494,W,152439.341,V*30
$GPRMC,152440.341,V,4054.954,N,07902.493,W,33.5,0.26,041017,,E*4E
$GPGGA,152441.341,4054.954,N,07902.493,W,0,00,,,M,,M,,*5F
$GPGLL,4054.954,N,07902.493,W,152442.341,V*3C
$GPRMC,152443.341,V,4054.956,N,07902.492,W,15.5,0.34,041017,,E*49
$GPGGA,152444.341,4054.956,N,07902.492,W,0,00,,,M,,M,,*59
$GPGLL,4054.956,N,07902.492,W,152445.341,V*38
$GPRMC,152446.341,V,4054.958,N,07902.492,W,52.8,0.29,041017,,E*40
$GPGGA,152447.341,4054.958,N,07902.492,W,0,00,,,M,,M,,*54
$GPGLL,4054.958,N,07902.492,W,152448.341,V*3B
$GPRMC,152449.341,V,4054.959,N,07902.491,W,48.9,0.31,041017,,E*4E
$GPGGA,152450.341,4054.959,N,07902.491,W,0,00,,,M,,M,,*50
$GPGLL,4054.959,N,07902.491,W,152451.341,V*31
$GPRMC,152452.341,V,4054.961,N,07902.490,W,2.8,0.13,041017,,E*71
$GPGGA,152453.341,4054.961,N,07902.490,W,0,00,,,M,,M,,*59
$GPGLL,4054.961,N,07902.490,W,152454.341,V*3E
$GPRMC,152455.341,V,4054.963,N,07902.490,W,3.5,0.23,041017,,E*7B
$GPGGA,152456.341,4054.963,N,07902.490,W,0,00,,,M,,M,,*5E
$GPGLL,4054.963,N,07902.490,W,152457.341,V*3F
$GPRMC,152458.341,V,4054.964,N,07902.489,W,27.6,0.31,041017,,E*4F
$GPGGA,152459.341,4054.964,N,07902.489,W,0,00,,,M,,M,,*5E
$GPGLL,4054.964,N,07902.489,W,152500.341,V*33
$GPRMC,152501.341,V,4054.966,N,07902.488,W,94.3,0.32,041017,,E*4F
$GPGGA,152502.341,4054.966,N,07902.488,W,0,00,,,M,,M,,*52
$GPGLL,4054.966,N,07902.488,W,152503.341,V*33
$GPRMC,152504.341,V,4054.967,N,07902.488,W,73.7,0.23,041017,,E*46
$GPGGA,152505.341,4054.967,N,07902.488,W,0,00,,,M,,M,,*54
$GPGLL,4054.967,N,07902.488,W,152506.341,V*37
$GPRMC,152507.341,V,4054.969,N,07902.487,W,30.6,0.33,041017,,E*43
$GPGGA,152508.341,4054.969,N,07902.487,W,0,00,,,M,,M,,*58
$GPGLL,4054.969,N,07902.487,W,152509.341,V*39
$GPRMC,152510.341,V,4054.970,N,07902.485,W,76.9,0.43,041017,,E*45
$GPGGA,152511.341,4054.970,N,07902.485,W,0,00,,,M,,M,,*5A
$GPGLL,4054.970,N,07902.485,W,152512.341,V*39
$GPRMC,152513.341,V,4054.972,N,07902.484,W,88.6,0.52,041017,,E*4B
$GPGGA,152514.341,4054.972,N,07902.484,W,0,00,,,M,,M,,*5C
$GPGLL,4054.972,N,07902.484,W,152515.341,V*3D
$GPRMC,152516.341,V,4054.973,N,07902.483,W,68.6,0.53,041017,,E*47
$GPGGA,152517.341,4054.973,N,07902.483,W,0,00,,,M,,M,,*59
$GPGLL,4054.973,N,07902.483,W,152518.341,V*36
$GPRMC,152519.341,V,4054.974,N,07902.481,W,21.8,0.63,041017,,E*4D
$GPGGA,152520.341,4054.974,N,07902.481,W,0,00,,,M,,M,,*58
$GPGLL,4054.974,N,07902.481,W,152521.341,V*39
$GPRMC,152522.341,V,4054.975,N,07902.480,W,90.3,0.68,041017,,E*4F
$GPGGA,152523.341,4054.975,N,07902.480,W,0,00,,,M,,M,,*5B
$GPGLL,4054.975,N,07902.480,W,152524.341,V*3C
$GPRMC,152525.341,V,4054.975,N,07902.478,W,29.8,0.75,041017,,E*4A
$GPGGA,152526.341,4054.975,N,07902.478,W,0,00,,,M,,M,,*59
$GPGLL,4054.975,N,07902.478,W,152527.341,V*38
$GPRMC,152528.341,V,4054.976,N,07902.477,W,75.3,0.67,041017,,E*4A
$GPGGA,152529.341,4054.976,N,07902.477,W,0,00,,,M,,M,,*5A
$GPGLL,4054.976,N,07902.477,W,152530.341,V*32
$GPRMC,152531.341,V,4054.977,N,07902.475,W,48.2,0.61,041017,,E*48
$GPGGA,152532.341,4054.977,N,07902.475,W,0,00,,,M,,M,,*53
$GPGLL,4054.977,N,07902.475,W,152533.341,V*32
$GPRMC,152534.341,V,4054.979,N,07902.474,W,34.5,0.51,041017,,E*4D
$GPGGA,152535.341,4054.979,N,07902.474,W,0,00,,,M,,M,,*5B
$GPGLL,4054.979,N,07902.474,W,152536.341,V*38
$GPRMC,152537.341,V,4054.980,N,07902.472,W,15.9,0.49,041017,,E*48
$GPGGA,152538.341,4054.980,N,07902.472,W,0,00,,,M,,M,,*56
$GPGLL,4054.980,N,07902.472,W,152539.341,V*37
$GPRMC,152540.341,V,4054.981,N,07902.471,W,20.7,0.50,041017,,E*4A
$GPGGA,152541.341,4054.981,N,07902.471,W,0,00,,,M,,M,,*5A
$GPGLL,4054.981,N,07902.471,W,152542.341,V*39
$GPRMC,152543.341,V,4054.982,N,07902.470,W,25.9,0.46,041017,,E*47
$GPGGA,152544.341,4054.982,N,07902.470,W,0,00,,,M,,M,,*5D
$GPGLL,4054.982,N,07902.470,W,152545.341,V*3C
$GPRMC,152546.341,V,4054.984,N,07902.469,W,47.1,0.40,041017,,E*46
$GPGGA,152547.341,4054.984,N,07902.469,W,0,00,,,M,,M,,*50
$GPGLL,4054.984,N,07902.469,W,152548.341,V*3F
$GPRMC,152549.341,V,4054.985,N,07902.468,W,57.5,0.46,041017,,E*4A
$GPGGA,152550.341,4054.985,N,07902.468,W,0,00,,,M,,M,,*56
$GPGLL,4054.985,N,07902.468,W,152551.341,V*37
$GPRMC,152552.341,V,4054.987,N,07902.467,W,1.8,0.35,041017,,E*77
$GPGGA,152553.341,4054.987,N,07902.467,W,0,00,,,M,,M,,*58
$GPGLL,4054.987,N,07902.467,W,152554.341,V*3F
$GPRMC,152555.341,V,4054.988,N,07902.466,W,52.7,0.32,041017,,E*40
$GPGGA,152556.341,4054.988,N,07902.466,W,0,00,,,M,,M,,*53
$GPGLL,4054.988,N,07902.466,W,152557.341,V*32
$GPRMC,152558.341,V,4054.990,N,07902.465,W,24.4,0.27,041017,,E*41
$GPGGA,152559.341,4054.990,N,07902.465,W,0,00,,,M,,M,,*56
$GPGLL,4054.990,N,07902.465,W,152600.341,V*39
$GPRMC,152601.341,V,4054.991,N,07902.464,W,59.6,0.56,041017,,E*40
$GPGGA,152602.341,4054.991,N,07902.464,W,0,00,,,M,,M,,*5B
$GPGLL,4054.991,N,07902.464,W,152603.341,V*3A
$GPRMC,152604.341,V,4054.992,N,07902.463,W,58.3,0.52,041017,,E*41
$GPGGA,152605.341,4054.992,N,07902.463,W,0,00,,,M,,M,,*58
$GPGLL,4054.992,N,07902.463,W,152606.341,V*3B
$GPRMC,152607.341,V,4054.994,N,07902.461,W,78.0,0.51,041017,,E*44
$GPGGA,152608.341,4054.994,N,07902.461,W,0,00,,,M,,M,,*51
$GPGLL,4054.994,N,07902.461,W,152609.341,V*30
$GPRMC,152610.341,V,4054.995,N,07902.460,W,41.8,0.54,041017,,E*45
$GPGGA,152611.341,4054.995,N,07902.460,W,0,00,,,M,,M,,*59
$GPGLL,4054.995,N,07902.460,W,152612.341,V*3A
$GPRMC,152613.341,V,4054.996,N,07902.458,W,90.5,0.58,041017,,E*43
$GPGGA,152614.341,4054.996,N,07902.458,W,0,00,,,M,,M,,*54
$GPGLL,4054.996,N,07902.458,W,152615.341,V*35
$GPRMC,152616.341,V,4054.997,N,07902.457,W,23.7,0.64,041017,,E*4D
$GPGGA,152617.341,4054.997,N,07902.457,W,0,00,,,M,,M,,*59
$GPGLL,4054.997,N,07902.457,W,152618.341,V*36
$GPRMC,152619.341,V,4054.998,N,07902.455,W,20.7,0.62,041017,,E*4A
$GPGGA,152620.341,4054.998,N,07902.455,W,0,00,,,M,,M,,*50
$GPGLL,4054.998,N,07902.455,W,152621.341,V*31
$GPRMC,152622.341,V,4054.999,N,07902.454,W,33.1,0.54,041017,,E*43
$GPGGA,152623.341,4054.999,N,07902.454,W,0,00,,,M,,M,,*53
$GPGLL,4054.999,N,07902.454,W,152624.341,V*34
$GPRMC,152625.341,V,4054.999,N,07902.452,W,66.4,0.99,041017,,E*46
$GPGGA,152626.341,4054.999,N,07902.452,W,0,00,,,M,,M,,*50
$GPGLL,4054.999,N,07902.452,W,152627.341,V*31
$GPRMC,152628.341,V,4054.999,N,07902.451,W,50.1,0.91,041017,,E*40
$GPGGA,152629.341,4054.999,N,07902.451,W,0,00,,,M,,M,,*5C
$GPGLL,4054.999,N,07902.451,W,152630.341,V*34
$GPRMC,152631.341,V,4055.000,N,07902.449,W,5.5,0.94,041017,,E*78
$GPGGA,152632.341,4055.000,N,07902.449,W,0,00,,,M,,M,,*57
$GPGLL,4055.000,N,07902.449,W,152633.341,V*36
$GPRMC,152634.341,V,4055.000,N,07902.447,W,5.7,0.93,041017,,E*76
$GPGGA,152635.341,4055.000,N,07902.447,W,0,00,,,M,,M,,*5E
$GPGLL,4055.000,N,07902.447,W,152636.341,V*3D
$GPRMC,152637.341,V,4055.000,N,07902.445,W,84.8,0.95,041017,,E*47
$GPGGA,152638.341,4055.000,N,07902.445,W,0,00,,,M,,M,,*51
$GPGLL,4055.000,N,07902.445,W,152639.341,V*30
$GPRMC,152640.341,V,4055.000,N,07902.443,W,77.1,0.97,041017,,E*46
$GPGGA,152641.341,4055.000,N,07902.443,W,0,00,,,M,,M,,*59
$GPGLL,4055.000,N,07902.443,W,152642.341,V*3A
$GPRMC,152643.341,V,4055.000,N,07902.442,W,56.4,1.08,041017,,E*45
$GPGGA,152644.341,4055.000,N,07902.442,W,0,00,,,M,,M,,*5D
$GPGLL,4055.000,N,07902.442,W,152645.341,V*3C
$GPRMC,152646.341,V,4054.999,N,07902.440,W,51.1,1.17,041017,,E*46
$GPGGA,152647.341,4054.999,N,07902.440,W,0,00,,,M,,M,,*54
$GPGLL,4054.999,N,07902.440,W,152648.341,V*3B
$GPRMC,152649.341,V,4054.999,N,07902.438,W,66.5,1.19,041017,,E*48
$GPGGA,152650.341,4054.999,N,07902.438,W,0,00,,,M,,M,,*5D
$GPGLL,4054.999,N,07902.438,W,152651.341,V*3C
$GPRMC,152652.341,V,4054.998,N,07902.436,W,85.3,1.25,041017,,E*49
$GPGGA,152653.341,4054.998,N,07902.436,W,0,00,,,M,,M,,*51
$GPGLL,4054.998,N,07902.436,W,152654.341,V*36
$GPRMC,152655.341,V,4054.998,N,07902.435,W,79.5,1.21,041017,,E*4C
$GPGGA,152656.341,4054.998,N,07902.435,W,0,00,,,M,,M,,*57
$GPGLL,4054.998,N,07902.435,W,152657.341,V*36
$GPRMC,152658.341,V,4054.997,N,07902.433,W,44.4,1.12,041017,,E*47
$GPGGA,152659.341,4054.997,N,07902.433,W,0,00,,,M,,M,,*51
$GPGLL,4054.997,N,07902.433,W,152700.341,V*3C
$GPRMC,152701.341,V,4054.997,N,07902.431,W,23.7,1.15,041017,,E*4D
$GPGGA,152702.341,4054.997,N,07902.431,W,0,00,,,M,,M,,*5C
$GPGLL,4054.997,N,07902.431,W,152703.341,V*3D
$GPRMC,152704.341,V,4054.997,N,07902.429,W,16.8,1.08,041017,,E*44
$GPGGA,152705.341,4054.997,N,07902.429,W,0,00,,,M,,M,,*52
$GPGLL,4054.997,N,07902.429,W,152706.341,V*31
$GPRMC,152707.341,V,4054.996,N,07902.428,W,35.8,1.11,041017,,E*4E
$GPGGA,152708.341,4054.996,N,07902.428,W,0,00,,,M,,M,,*5F
$GPGLL,4054.996,N,07902.428,W,152709.341,V*3E
$GPRMC,152710.341,V,4054.996,N,07902.426,W,27.2,1.05,041017,,E*4A
$GPGGA,152711.341,4054.996,N,07902.426,W,0,00,,,M,,M,,*59
$GPGLL,4054.996,N,07902.426,W,152712.341,V*3A
$GPRMC,152713.341,V,4054.996,N,07902.424,W,95.0,0.98,041017,,E*45
$GPGGA,152714.341,4054.996,N,07902.424,W,0,00,,,M,,M,,*5E
$GPGLL,4054.996,N,07902.424,W,152715.341,V*3F
$GPRMC,152716.341,V,4054.996,N,07902.422,W,29.5,1.07,041017,,E*43
$GPGGA,152717.341,4054.996,N,07902.422,W,0,00,,,M,,M,,*5B
$GPGLL,4054.996,N,07902.422,W,152718.341,V*34
$GPRMC,152719.341,V,4054.996,N,07902.420,W,73.3,1.00,041017,,E*40
$GPGGA,152720.341,4054.996,N,07902.420,W,0,00,,,M,,M,,*5D
$GPGLL,4054.996,N,07902.420,W,152721.341,V*3C
$GPRMC,152722.341,V,4054.996,N,07902.419,W,64.5,0.96,041017,,E*4C
$GPGGA,152723.341,4054.996,N,07902.419,W,0,00,,,M,,M,,*54
$GPGLL,4054.996,N,07902.419,W,152724.341,V*33
$GPRMC,152725.341,V,4054.996,N,07902.417,W,88.7,1.05,041017,,E*4E
$GPGGA,152726.341,4054.996,N,07902.417,W,0,00,,,M,,M,,*5F
$GPGLL,4054.996,N,07902.417,W,152727.341,V*3E
$GPRMC,152728.341,V,4054.996,N,07902.415,W,10.5,1.00,041017,,E*47
$GPGGA,152729.341,4054.996,N,07902.415,W,0,00,,,M,,M,,*52
$GPGLL,4054.996,N,07902.415,W,152730.341,V*3A
$GPRMC,152731.341,V,4054.996,N,07902.413,W,66.0,0.97,041017,,E*42
$GPGGA,152732.341,4054.996,N,07902.413,W,0,00,,,M,,M,,*5E
$GPGLL,4054.996,N,07902.413,W,152733.341,V*3F
$GPRMC,152734.341,V,4054.996,N,07902.411,W,42.9,0.96,041017,,E*4B
$GPGGA,152735.341,4054.996,N,07902.411,W,0,00,,,M,,M,,*5B
$GPGLL,4054.996,N,07902.411,W,152736.341,V*38
$GPRMC,152737.341,V,4054.996,N,07902.410,W,29.8,0.96,041017,,E*45
$GPGGA,152738.341,4054.996,N,07902.410,W,0,00,,,M,,M,,*57
$GPGLL,4054.996,N,07902.410,W,152739.341,V*36
$GPRMC,152740.341,V,4054.996,N,07902.408,W,79.6,0.95,041017,,E*44
$GPGGA,152741.341,4054.996,N,07902.408,W,0,00,,,M,,M,,*50
$GPGLL,4054.996,N,07902.408,W,152742.341,V*33
$GPRMC,152743.341,V,4054.997,N,07902.406,W,19.6,0.88,041017,,E*42
$GPGGA,152744.341,4054.997,N,07902.406,W,0,00,,,M,,M,,*5A
$GPGLL,4054.997,N,07902.406,W,152745.341,V*3B
$GPRMC,152746.341,V,4054.998,N,07902.405,W,12.5,0.65,041017,,E*40
$GPGGA,152747.341,4054.998,N,07902.405,W,0,00,,,M,,M,,*55
$GPGLL,4054.998,N,07902.405,W,152748.341,V*3A
$GPRMC,152749.341,V,4054.998,N,07902.403,W,57.9,0.75,041017,,E*45
$GPGGA,152750.341,4054.998,N,07902.403,W,0,00,,,M,,M,,*55
$GPGLL,4054.998,N,07902.403,W,152751.341,V*34
$GPRMC,152752.341,V,4054.999,N,07902.401,W,64.8,0.76,041017,,E*4E
$GPGGA,152753.341,4054.999,N,07902.401,W,0,00,,,M,,M,,*55
$GPGLL,4054.999,N,07902.401,W,152754.341,V*32
$GPRMC,152755.341,V,4055.000,N,07902.400,W,7.1,0.78,041017,,E*72
$GPGGA,152756.341,4055.000,N,07902.400,W,0,00,,,M,,M,,*59
$GPGLL,4055.000,N,07902.400,W,152757.341,V*38
$GPRMC,152758.341,V,4055.000,N,07902.398,W,69.1,0.73,041017,,E*4A
$GPGGA,152759.341,4055.000,N,07902.398,W,0,00,,,M,,M,,*50
$GPGLL,4055.000,N,07902.398,W,152800.341,V*33
$GPRMC,152801.341,V,4055.001,N,07902.396,W,56.6,0.81,041017,,E*40
$GPGGA,152802.341,4055.001,N,07902.396,W,0,00,,,M,,M,,*5E
$GPGLL,4055.001,N,07902.396,W,152803.341,V*3F
$GPRMC,152804.341,V,4055.001,N,07902.394,W,93.4,0.90,041017,,E*4C
$GPGGA,152805.341,4055.001,N,07902.394,W,0,00,,,M,,M,,*5B
$GPGLL,4055.001,N,07902.394,W,152806.341,V*38
$GPRMC,152807.341,V,4055.001,N,07902.393,W,20.6,0.95,041017,,E*47
$GPGGA,152808.341,4055.001,N,07902.393,W,0,00,,,M,,M,,*51
$GPGLL,4055.001,N,07902.393,W,152809.341,V*30
$GPRMC,152810.341,V,4055.002,N,07902.391,W,23.1,0.90,041017,,E*41
$GPGGA,152811.341,4055.002,N,07902.391,W,0,00,,,M,,M,,*58
$GPGLL,4055.002,N,07902.391,W,152812.341,V*3B
$GPRMC,152813.341,V,4055.003,N,07902.390,W,8.9,0.50,041017,,E*7F
$GPGGA,152814.341,4055.003,N,07902.390,W,0,00,,,M,,M,,*5D
$GPGLL,4055.003,N,07902.390,W,152815.341,V*3C
$GPRMC,152816.341,V,4055.004,N,07902.388,W,32.3,0.51,041017,,E*46
$GPGGA,152817.341,4055.004,N,07902.388,W,0,00,,,M,,M,,*50
$GPGLL,4055.004,N,07902.388,W,152818.341,V*3F
$GPRMC,152819.341,V,4055.005,N,07902.387,W,25.2,0.61,041017,,E*43
$GPGGA,152820.341,4055.005,N,07902.387,W,0,00,,,M,,M,,*5A
$GPGLL,4055.005,N,07902.387,W,152821.341,V*3B
$GPRMC,152822.341,V,4055.006,N,07902.385,W,34.7,0.69,041017,,E*47
$GPGGA,152823.341,4055.006,N,07902.385,W,0,00,,,M,,M,,*58
$GPGLL,4055.006,N,07902.385,W,152824.341,V*3F
$GPRMC,152825.341,V,4055.007,N,07902.384,W,77.6,0.67,041017,,E*48
$GPGGA,152826.341,4055.007,N,07902.384,W,0,00,,,M,,M,,*5D
$GPGLL,4055.007,N,07902.384,W,152827.341,V*3C
$GPRMC,152828.341,V,4055.008,N,07902.382,W,33.1,0.70,041017,,E*4D
$GPGGA,152829.341,4055.008,N,07902.382,W,0,00,,,M,,M,,*5B
$GPGLL,4055.008,N,07902.382,W,152830.341,V*33
$GPRMC,152831.341,V,4055.009,N,07902.380,W,88.7,0.69,041017,,E*48
$GPGGA,152832.341,4055.009,N,07902.380,W,0,00,,,M,,M,,*52
$GPGLL,4055.009,N,07902.380,W,152833.341,V*33
$GPRMC,152834.341,V,4055.009,N,07902.379,W,77.2,0.76,041017,,E*40
$GPGGA,152835.341,4055.009,N,07902.379,W,0,00,,,M,,M,,*53
$GPGLL,4055.009,N,07902.379,W,152836.341,V*30
$GPRMC,152837.341,V,4055.010,N,07902.377,W,81.6,0.66,041017,,E*49
$GPGGA,152838.341,4055.010,N,07902.377,W,0,00,,,M,,M,,*58
$GPGLL,4055.010,N,07902.377,W,152839.341,V*39
$GPRMC,152840.341,V,4055.011,N,07902.376,W,70.0,0.69,041017,,E*4E
$GPGGA,152841.341,4055.011,N,07902.376,W,0,00,,,M,,M,,*56
$GPGLL,4055.011,N,07902.376,W,152842.341,V*35
$GPRMC,152843.341,V,4055.013,N,07902.375,W,92.7,0.23,041017,,E*49
$GPGGA,152844.341,4055.013,N,07902.375,W,0,00,,,M,,M,,*52
$GPGLL,4055.013,N,07902.375,W,152845.341,V*33
$GPRMC,152846.341,V,4055.014,N,07902.374,W,51.4,0.30,041017,,E*44
$GPGGA,152847.341,4055.014,N,07902.374,W,0,00,,,M,,M,,*57
$GPGLL,4055.014,N,07902.374,W,152848.341,V*38
$GPRMC,152849.341,V,4055.016,N,07902.374,W,28.4,0.23,041017,,E*45
$GPGGA,152850.341,4055.016,N,07902.374,W,0,00,,,M,,M,,*53
$GPGLL,4055.016,N,07902.374,W,152851.341,V*32
$GPRMC,152852.341,V,4055.018,N,07902.373,W,46.2,0.21,041017,,E*4A
$GPGGA,152853.341,4055.018,N,07902.373,W,0,00,,,M,,M,,*59
$GPGLL,4055.018,N,07902.373,W,152854.341,V*3E
$GPRMC,152855.341,V,4055.019,N,07902.372,W,38.9,0.28,041017,,E*46
$GPGGA,152856.341,4055.019,N,07902.372,W,0,00,,,M,,M,,*5C
$GPGLL,4055.019,N,07902.372,W,152857.341,V*3D
$GPRMC,152858.341,V,4055.021,N,07902.371,W,16.7,0.30,041017,,E*48
$GPGGA,152859.341,4055.021,N,07902.371,W,0,00,,,M,,M,,*5B
$GPGLL,4055.021,N,07902.371,W,152900.341,V*36
